[{"city":"Milwaukee","latitude":43.0389,"geocode":true,"text":"He was born in Milwaukee, and left after.","longitude":-87.90647},{"city":"Chicago","latitude":41.85003,"geocode":true,"text":"Finally he got a job in Chicago.","longitude":-87.65005},{"city":"Detroit","latitude":42.33143,"geocode":true,"text":"Then he went back to Detroit.","longitude":-83.04575},{"city":"Toronto","latitude":43.70011,"geocode":true,"text":"He also lived in Toronto.","longitude":-79.4163},{"city":"Ottawa","latitude":45.41117,"geocode":true,"text":"After finishing his work placement, he travelled to Ottawa.","longitude":-75.69812},{"city":"Montreal","latitude":45.50884,"geocode":true,"text":"After he travelled, to Montreal.","longitude":-73.58781}]