[{"city":"Milwaukee","latitude":43.0389,"geocode":true,"text":"He was born in Milwaukee, and left after.","longitude":-87.90647},{"city":"Detroit","latitude":42.33143,"geocode":true,"text":"Then he went back to Detroit.","longitude":-83.04575},{"city":"Toronto","latitude":43.70011,"geocode":true,"text":"He also lived in Toronto.","longitude":-79.4163},{"city":"Jacksonville Naval Air Station","latitude":0.0,"geocode":false,"text":"He went to the Jacksonville Naval Air Station.","longitude":0.0},{"city":"Key West Naval Air Station","latitude":0.0,"geocode":false,"text":"He also lived in Key West Naval Air Station.","longitude":0.0},{"city":"Ottawa","latitude":45.41117,"geocode":true,"text":"After finishing his work placement, he travelled to Ottawa.","longitude":-75.69812},{"city":"Montreal","latitude":45.50884,"geocode":true,"text":"After he travelled, to Montreal.","longitude":-73.58781},{"city":"Milwaukee","latitude":43.0389,"geocode":true,"text":"Finally he was moved to Milwaukee.","longitude":-87.90647}]