[{"city":"Northern States","latitude":39.470989,"geocode":true,"text":"Since my return to liberty, I have not failed to perceive the increasing interest throughout the Northern States, in regard to the subject of Slavery.","longitude":-80.2888748},{"city":"Rhode Island","latitude":41.5800945,"geocode":true,"text":"As far back as I have been able to ascertain, my ancestors on the paternal side were slaves in Rhode Island.","longitude":-71.4774291},{"city":"Hoosic","latitude":42.19769,"geocode":true,"text":"They belonged to a family by the name of Northup, one of whom, removing to the State of New-York, settled at Hoosic, in Rensselaer county.","longitude":-71.13389},{"city":"Rensselaer county","latitude":42.673664,"geocode":true,"text":"They belonged to a family by the name of Northup, one of whom, removing to the State of New-York, settled at Hoosic, in Rensselaer county.","longitude":-73.5594128},{"city":"Esq.","latitude":-6.9420825,"geocode":true,"text":"Henry B. Northup, Esq., of Sandy Hill, a distinguished counselor at law, and the man to whom, under Providence, I am indebted for my present liberty, and my return to the society of my wife and children, is a relative of the family in which my forefathers were thus held to service, and from which they took the name I bear.","longitude":107.6590297},{"city":"Minerva","latitude":40.7462936,"geocode":true,"text":"Sometime after my father's liberation, he removed to the town of Minerva, Essex county, N. Y., where I was born, in the month of July, 1808.","longitude":-81.1447711},{"city":"Essex county","latitude":51.7668369,"geocode":true,"text":"Sometime after my father's liberation, he removed to the town of Minerva, Essex county, N. Y., where I was born, in the month of July, 1808.","longitude":0.4757762},{"city":"Granville","latitude":-33.83333,"geocode":true,"text":"From thence he removed to Granville, Washington county, near a place known as Slyborough, where, for some years, he labored on the farm of Clark Northup, also a relative of his old master; from thence he removed to the Alden farm, at Moss Street, a short distance north of the village of Sandy Hill; and from thence to the farm now owned by Russel Pratt, situated on the road leading from Fort Edward to Argyle, where he continued to reside until his death, which took place on the 22d day of November, 1829.","longitude":151.01667},{"city":"Washington county","latitude":37.9291754,"geocode":true,"text":"From thence he removed to Granville, Washington county, near a place known as Slyborough, where, for some years, he labored on the farm of Clark Northup, also a relative of his old master; from thence he removed to the Alden farm, at Moss Street, a short distance north of the village of Sandy Hill; and from thence to the farm now owned by Russel Pratt, situated on the road leading from Fort Edward to Argyle, where he continued to reside until his death, which took place on the 22d day of November, 1829.","longitude":-90.7313043},{"city":"Moss Street","latitude":43.3218516,"geocode":true,"text":"From thence he removed to Granville, Washington county, near a place known as Slyborough, where, for some years, he labored on the farm of Clark Northup, also a relative of his old master; from thence he removed to the Alden farm, at Moss Street, a short distance north of the village of Sandy Hill; and from thence to the farm now owned by Russel Pratt, situated on the road leading from Fort Edward to Argyle, where he continued to reside until his death, which took place on the 22d day of November, 1829.","longitude":-73.5715735},{"city":"Sandy Hill","latitude":29.7997542,"geocode":true,"text":"From thence he removed to Granville, Washington county, near a place known as Slyborough, where, for some years, he labored on the farm of Clark Northup, also a relative of his old master; from thence he removed to the Alden farm, at Moss Street, a short distance north of the village of Sandy Hill; and from thence to the farm now owned by Russel Pratt, situated on the road leading from Fort Edward to Argyle, where he continued to reside until his death, which took place on the 22d day of November, 1829.","longitude":-98.4911575},{"city":"Fort Edward","latitude":43.2670175,"geocode":true,"text":"From thence he removed to Granville, Washington county, near a place known as Slyborough, where, for some years, he labored on the farm of Clark Northup, also a relative of his old master; from thence he removed to the Alden farm, at Moss Street, a short distance north of the village of Sandy Hill; and from thence to the farm now owned by Russel Pratt, situated on the road leading from Fort Edward to Argyle, where he continued to reside until his death, which took place on the 22d day of November, 1829.","longitude":-73.5845597},{"city":"Oswego","latitude":41.68281,"geocode":true,"text":"The latter is still living in the county of Oswego, near the city of that name; my mother died during the period of my captivity.","longitude":-88.35146},{"city":"Africa","latitude":-8.783195,"geocode":true,"text":"His whole life was passed in the peaceful pursuits of agriculture, never seeking employment in those more menial positions, which seem to be especially allotted to the children of Africa.","longitude":34.508523},{"city":"Louisiana","latitude":30.9842977,"geocode":true,"text":"How often since that time has the recollection of his paternal counsels occurred to me, while lying in a slave hut in the distant and sickly regions of Louisiana, smarting with the undeserved wounds which an inhuman master had inflicted, and longing only for the grave which had covered him, to shield me also from the lash of the oppressor.","longitude":-91.9623327},{"city":"Fort Edward","latitude":43.2670175,"geocode":true,"text":"The ceremony was performed at Fort Edward, by Timothy Eddy, Esq., a magistrate of that town, and still a prominent citizen of the place.","longitude":-73.5845597},{"city":"Esq.","latitude":-6.9420825,"geocode":true,"text":"The ceremony was performed at Fort Edward, by Timothy Eddy, Esq., a magistrate of that town, and still a prominent citizen of the place.","longitude":107.6590297},{"city":"Salem","latitude":11.65,"geocode":true,"text":"She had resided a long time at Sandy Hill, with Mr. Baird, proprietor of the Eagle Tavern, and also in the family of Rev. Alexander Proudfit, of Salem.","longitude":78.16667},{"city":"Fort Edward","latitude":43.2670175,"geocode":true,"text":"Immediately upon our marriage we commenced house-keeping, in the old yellow building then standing at the southern extremity of Fort Edward village, and which has since been transformed into a modern mansion, and lately occupied by Captain Lathrop.","longitude":-73.5845597},{"city":"Fort","latitude":18.9352599,"geocode":true,"text":"It was also occupied by Burgoyne in 1777, being situated near the old Fort on the left bank of the Hudson.","longitude":72.8371511},{"city":"Hudson","latitude":41.24006,"geocode":true,"text":"It was also occupied by Burgoyne in 1777, being situated near the old Fort on the left bank of the Hudson.","longitude":-81.44067},{"city":"Champlain Canal","latitude":43.1736961,"geocode":true,"text":"During the winter I was employed with others repairing the Champlain Canal, on that section over which William Van Nortwick was superintendent.","longitude":-73.5794724},{"city":"Lake Champlain","latitude":44.586581,"geocode":true,"text":"Having hired several efficient hands to assist me, I entered into contracts for the transportation of large rafts of timber from Lake Champlain to Troy.","longitude":-73.3800905},{"city":"Canada","latitude":56.130366,"geocode":true,"text":"In one of my voyages down Lake Champlain, I was induced to make a visit to Canada.","longitude":-106.346771},{"city":"Montreal","latitude":45.50884,"geocode":true,"text":"Repairing to Montreal, I visited the cathedral and other places of interest in that city, from whence I continued my excursion to Kingston and other towns, obtaining a knowledge of localities, which was also of service to me afterwards, as will appear towards the close of this narrative.","longitude":-73.58781},{"city":"Kingston","latitude":17.99702,"geocode":true,"text":"Repairing to Montreal, I visited the cathedral and other places of interest in that city, from whence I continued my excursion to Kingston and other towns, obtaining a knowledge of localities, which was also of service to me afterwards, as will appear towards the close of this narrative.","longitude":-76.79358},{"city":"Hartford","latitude":41.76371,"geocode":true,"text":"With one cow, one swine, a yoke of fine oxen I had lately purchased of Lewis Brown, in Hartford, and other personal property and effects, we proceeded to our new home in Kingsbury.","longitude":-72.68509},{"city":"Kingsbury","latitude":38.97713,"geocode":true,"text":"With one cow, one swine, a yoke of fine oxen I had lately purchased of Lewis Brown, in Hartford, and other personal property and effects, we proceeded to our new home in Kingsbury.","longitude":-119.9068468},{"city":"Kingsbury","latitude":38.97713,"geocode":true,"text":"Well, indeed, would it have been for us had we remained on the farm at Kingsbury; but the time came when the next step was to be taken towards the cruel destiny that awaited me.","longitude":-119.9068468},{"city":"Saratoga Springs","latitude":43.08313,"geocode":true,"text":"In March, 1834, we removed to Saratoga Springs.","longitude":-73.78457},{"city":"Washington","latitude":54.9,"geocode":true,"text":"We occupied a house belonging to Daniel O'Brien, on the north side of Washington street.","longitude":-1.51667},{"city":"Washington","latitude":54.9,"geocode":true,"text":"At that time Isaac Taylor kept a large boarding house, known as Washington Hall, at the north end of Broadway.","longitude":-1.51667},{"city":"Broadway","latitude":40.790885,"geocode":true,"text":"At that time Isaac Taylor kept a large boarding house, known as Washington Hall, at the north end of Broadway.","longitude":-73.9747115},{"city":"United States Hotel","latitude":33.0132526,"geocode":true,"text":"After this time I was generally employed through the visiting season, as also was Anne, in the United States Hotel, and other public houses of the place.","longitude":-79.9775502},{"city":"Saratoga","latitude":37.26383,"geocode":true,"text":"In winter seasons I relied upon my violin, though during the construction of the Troy and Saratoga railroad, I performed many hard days' labor upon it.","longitude":-122.02301},{"city":"Saratoga","latitude":37.26383,"geocode":true,"text":"I was in the habit, at Saratoga, of purchasing articles necessary for my family at the stores of Mr. Cephas Parker and Mr. William Perry, gentlemen towards whom, for many acts of kindness, I entertained feelings of strong regard.","longitude":-122.02301},{"city":"United States Hotel","latitude":33.0132526,"geocode":true,"text":"While living at the United States Hotel, I frequently met with slaves, who had accompanied their masters from the South.","longitude":-79.9775502},{"city":"South","latitude":44.4669941,"geocode":true,"text":"While living at the United States Hotel, I frequently met with slaves, who had accompanied their masters from the South.","longitude":-73.1709604},{"city":"Saratoga","latitude":37.26383,"geocode":true,"text":"I continued to reside at Saratoga until the spring of 1841.","longitude":-122.02301},{"city":"Hudson","latitude":41.24006,"geocode":true,"text":"The flattering anticipations which, seven years before, had seduced us from the quiet farm-house, on the east side of the Hudson, had not been realized.","longitude":-81.44067},{"city":"Saratoga","latitude":37.26383,"geocode":true,"text":"When not at labor I was always walking with them, clad in their best attire, through the streets and groves of Saratoga.","longitude":-122.02301}]